{
  "users": [
    {
      "email": "barkersam01@gmail.com",
      "name": "Sam Barker",
      "password": 1234,
      "id": 1
    }
  ],
  "clinics": [
    {
      "id": 1,
      "name": "Animal House Vetinary Clinic",
      "address": "223 Largo Dr Nashville,TN 37211",
      "services": "General practice, offering wellness packages, vaccines, a in house labratory, radiology, and surgery including dentistry.",
      "hours": "Walk-in clinic open Monday-Friday 9am-4pm",
      "phoneNumber": "615-834-6441",
      "url": "images/Animal house vet.jpg"
    },
    {
      "id": 2,
      "name": "Brentwood Vetinary Clinic",
      "address": "5009 Harpeth Dr Brentwood,TN 37027",
      "services": "By appointment only. Wellness, Vaccines, spay and neuter, dentistry, and accupuncture.",
      "hours": "Monday-Friady 7am-6pm, Saturday 8am-1pm",
      "phoneNumber": "615-373-4777",
      "url": "images/Brentwood-vet-clinic.jpg"
    },
    {
      "id": 3,
      "name": "Five Points Animal Hospital",
      "address": "1103 Woodland Street Nashville,TN 37206",
      "services": "By appointment only. Wellness, Vaccines, diagnostics, spay and neuter, dentistry, soft tissue surgery.",
      "hours": "Monday-Friady 7:30am-5:30pm, Saturday 8am-1pm",
      "phoneNumber": "615-750-2377",
      "url": "images/5 Points animal hospital.jpg"
    },
    {
      "id": 4,
      "name": "Nashville Vetinary Specialist and Animal Emergency",
      "address": "2971 Sidco Drive Nashville,TN 37204",
      "services": "Emergency room, board certified specialist in Cardiology, Dermatology, Advanced Imaging, Internal Medicine, Neurology, Oncology, Rehabilitation, and Surgery.",
      "hours": "Open 24Hrs for Emergencies. Specialty services by appointment with referal.",
      "phoneNumber": "615-386-0107",
      "url": "images/Nashville Vetinary Specialist and Animal Emergency.jpg"
    },
    {
      "id": 5,
      "name": "BluePearl Specialty and Emergency Pet Hospital",
      "address": "2000 12th Avenue S Nashville,TN 37204",
      "services": "Emergency room, board certified specialist in Cardiology, Dentistry, Advanced Imaging, Dermatology, Internal Medicine, Rehabilitation, Surgery, Oncology, Ophthalmology, and Neurology. They also have a bloodbank and offer Acupuncture.",
      "hours": "Monday-Friday 6pm-7am, Weekends 24Hrs.",
      "phoneNumber": "615-383-2600",
      "url": "images/blue-pearl-animal-hospital.jpg"
    }
    
  ]
}